 {
  "features": [
    {
      "type": "Feature",
      "properties": {
        "id": "Local_museum.1",
        "id_local": "009",
        "name": "พิพิธภัณฑ์ท้องถิ่นเขตสัมพันธวงศ์",
        "dcode": "1013",
        "address": "ภายในวัดไตรมิตรวิทยาราม ใกล้ซุ้มประตูเฉลิมพระเกียรติ ถ.ตรีมิตร เขตสัมพันธวงศ์",
        "tel": "02-623-3329"
      },
      "geometry": {
        "type": "Point",
        "coordinates": [
          100.513355038059501,
          13.737794441809811
        ]
      }
    },
    {
      "type": "Feature",
      "properties": {
        "id": "Local_museum.2",
        "id_local": "015",
        "name": "พิพิธภัณฑ์ท้องถิ่นเขตบางขุนเทียน",
        "dcode": "1021",
        "address": "ภายในโรงเรียนคลองพิทยาลงกรณ์วิทยาคม สุดสายถนนบางขุนเทียน-ชายทะเล เขตบางขุนเทียน",
        "tel": "02-452-5001"
      },
      "geometry": {
        "type": "Point",
        "coordinates": [
          100.420275617580742,
          13.527660878243159
        ]
      }
    },
    {
      "type": "Feature",
      "properties": {
        "id": "Local_museum.3",
        "id_local": "014",
        "name": "พิพิธภัณฑ์ท้องถิ่นเขตบางกอกน้อย",
        "dcode": "1020",
        "address": "ภายในโรงเรียนสุวรรณารามวิทยาคม ซ.จรัญสนิทวงศ์ 32 ถ.จรัญสนิทวงศ์ เขตบางกอกน้อย",
        "tel": "02-4246873"
      },
      "geometry": {
        "type": "Point",
        "coordinates": [
          100.475710280871581,
          13.762438617239404
        ]
      }
    },
    {
      "type": "Feature",
      "properties": {
        "id": "Local_museum.4",
        "id_local": "004",
        "name": "พิพิธภัณฑ์ท้องถิ่นเขตบางรัก",
        "dcode": "1004",
        "address": "ตั้งอยู่ในพิพิธภัณฑ์ชาวบางกอก เลขที่ 273 ซ.เจริญกรุง43 ถ.เจริญกรุง เขตบางรัก",
        "tel": "02-233-7027"
      },
      "geometry": {
        "type": "Point",
        "coordinates": [
          100.517200189895775,
          13.728100171214971
        ]
      }
    },
    {
      "type": "Feature",
      "properties": {
        "id": "Local_museum.5",
        "id_local": "008",
        "name": "พิพิธภัณฑ์ท้องถิ่นเขตยานนาวา",
        "dcode": "1012",
        "address": "ศาลาทรงไทย วัดคลองภูมิ 22 ถ.พระราม 3 ซ.46 ช่องนนทรี เขตยานนาวา",
        "tel": "02-248-1733"
      },
      "geometry": {
        "type": "Point",
        "coordinates": [
          100.549329968021496,
          13.680651371958653
        ]
      }
    },
    {
      "type": "Feature",
      "properties": {
        "id": "Local_museum.6",
        "id_local": "013",
        "name": "พิพิธภัณฑ์ท้องถิ่นเขตคลองสาน",
        "dcode": "1018",
        "address": "อาคารหอสมุดวัดอนงคาราม ถ.สมเด็จเจ้าพระยา เขตคลองสาน",
        "tel": "02-438-3156"
      },
      "geometry": {
        "type": "Point",
        "coordinates": [
          100.497963533469388,
          13.73466206543841
        ]
      }
    },
    {
      "type": "Feature",
      "properties": {
        "id": "Local_museum.7",
        "id_local": "011",
        "name": "พิพิธภัณฑ์ท้องถิ่นเขตธนบุรี",
        "dcode": "1015",
        "address": "อยู่บนชั้น 3 โรงเรียนส่งเสริมพระพุทธศาสนาวันอาทิตย์ วัดประยุรวงศาวาส ถ.ประชาธิปก เขตธนบุรี",
        "tel": "02-465-5592"
      },
      "geometry": {
        "type": "Point",
        "coordinates": [
          100.495993733778789,
          13.737042395992244
        ]
      }
    },
    {
      "type": "Feature",
      "properties": {
        "id": "Local_museum.8",
        "id_local": "016",
        "name": "พิพิธภัณฑ์ท้องถิ่นเขตหนองแขม",
        "dcode": "1023",
        "address": "ภายในวัดศรีนวลธรรมมิมล ถ.เพชรเกษม ซ.81 เขตหนองแขม",
        "tel": "02-429-3655"
      },
      "geometry": {
        "type": "Point",
        "coordinates": [
          100.344597125055245,
          13.655205905039653
        ]
      }
    },
    {
      "type": "Feature",
      "properties": {
        "id": "Local_museum.9",
        "id_local": "021",
        "name": "พิพิธภัณฑ์ท้องถิ่นเขตจอมทอง",
        "dcode": "1035",
        "address": "วัดยายร่ม ถ.พระราม 2 เขตจอมทอง",
        "tel": "02-428-0685"
      },
      "geometry": {
        "type": "Point",
        "coordinates": [
          100.46473837978813,
          13.675263290442651
        ]
      }
    },
    {
      "type": "Feature",
      "properties": {
        "id": "Local_museum.10",
        "id_local": "027",
        "name": "พิพิธภัณฑ์ท้องถิ่นเขตทวีวัฒนา",
        "dcode": "1048",
        "address": "ภายในโรงเรียนวัดปุรณาวาส ถ.เลียบคลองมหาสวัสดิ์ เขตทวีวัฒนา",
        "tel": "02-441-9362"
      },
      "geometry": {
        "type": "Point",
        "coordinates": [
          100.335892203286136,
          13.803336139699647
        ]
      }
    },
    {
      "type": "Feature",
      "properties": {
        "id": "Local_museum.11",
        "id_local": "017",
        "name": "พิพิธภัณฑ์ท้องถิ่นเขตราษฎร์บูรณะ",
        "dcode": "1024",
        "address": "ภายในโรงเรียนวัดประเสริฐสุทธาวาส ถ.ราษฎร์บูรณะ เขตราษฎร์บูรณะ",
        "tel": "02-872-3192"
      },
      "geometry": {
        "type": "Point",
        "coordinates": [
          100.5036776987004,
          13.680056195075228
        ]
      }
    },
    {
      "type": "Feature",
      "properties": {
        "id": "Local_museum.12",
        "id_local": "005",
        "name": "พิพิธภัณฑ์ท้องถิ่นเขตบางเขน",
        "dcode": "1005",
        "address": "เลขที่ 3 อาคาร 18 มหาวิทยาลัยราชภัฏพระนคร ถ.แจ้งวัฒนะ แขวงอนุสาวรีย์ เขตบางเขน",
        "tel": "02-521-3267"
      },
      "geometry": {
        "type": "Point",
        "coordinates": [
          100.59409279792753,
          13.87660619742859
        ]
      }
    },
    {
      "type": "Feature",
      "properties": {
        "id": "Local_museum.13",
        "id_local": "022",
        "name": "พิพิธภัณฑ์ท้องถิ่นเขตดอนเมือง",
        "dcode": "1036",
        "address": "วัดพรหมรังษี เลขที่ 24\/1 หมู่ 5 ซ.ศิริสุข ถ.สรงประภา แขวงสีกัน เขตดอนเมือง",
        "tel": "02-565-2653"
      },
      "geometry": {
        "type": "Point",
        "coordinates": [
          100.575445694738619,
          13.921659729095522
        ]
      }
    },
    {
      "type": "Feature",
      "properties": {
        "id": "Local_museum.14",
        "id_local": "003",
        "name": "พิพิธภัณฑ์ท้องถิ่นเขตหนองจอก",
        "dcode": "1003",
        "address": "ณ บริเวณสวนสาธารณะฉลองกรุง ถ.ฉลองกรุง แขวงลำผักชี เขตหนองจอก",
        "tel": "02-543-2373"
      },
      "geometry": {
        "type": "Point",
        "coordinates": [
          100.832333631438061,
          13.84998756446026
        ]
      }
    },
    {
      "type": "Feature",
      "properties": {
        "id": "Local_museum.15",
        "id_local": "020",
        "name": "พิพิธภัณฑ์ท้องถิ่นเขตสวนหลวง",
        "dcode": "1034",
        "address": "ศาลาไม้สักเรือนไทยวัดใต้ เลขที่ 23 หมู่ 11 วัดใต้ ซอยอ่อนนุช3 แขวงสวนหลวง เขตสวนหลวง",
        "tel": "02-332-8139"
      },
      "geometry": {
        "type": "Point",
        "coordinates": [
          100.602643172499612,
          13.71318180499402
        ]
      }
    },
    {
      "type": "Feature",
      "properties": {
        "id": "Local_museum.16",
        "id_local": "024",
        "name": "พิพิธภัณฑ์ท้องถิ่นเขตคันนายาว",
        "dcode": "1043",
        "address": "วัดศรีมุนีกรณ์ เลขที่ 28\/1 ซ.รามอินทรา 46 แขวงคันนายาว เขตคันนายาว",
        "tel": "02-510-0910"
      },
      "geometry": {
        "type": "Point",
        "coordinates": [
          100.649028966679552,
          13.835002435288342
        ]
      }
    },
    {
      "type": "Feature",
      "properties": {
        "id": "Local_museum.17",
        "id_local": "007",
        "name": "พิพิธภัณฑ์ท้องถิ่นเขตลาดกระบัง",
        "dcode": "1011",
        "address": "วัดสุทธาโภชน์ เลขที่ 132 หมู่ 7 ถ.ฉลองกรุง ซ.2 แขวงทับยาว เขตลาดกระบัง",
        "tel": "02-360-6520"
      },
      "geometry": {
        "type": "Point",
        "coordinates": [
          100.795470641911436,
          13.740682287960359
        ]
      }
    },
    {
      "type": "Feature",
      "properties": {
        "id": "Local_museum.18",
        "id_local": "002",
        "name": "พิพิธภัณฑ์ท้องถิ่นเขตดุสิต",
        "dcode": "1002",
        "address": "อาคารไม้หน้า พิพิธภัณฑ์เด็กสวนเกียกกาย ถ.ทหาร เขตดุสิต",
        "tel": "02-241-3490"
      },
      "geometry": {
        "type": "Point",
        "coordinates": [
          100.519914035898097,
          13.79867322753536
        ]
      }
    },
    {
      "type": "Feature",
      "properties": {
        "id": "Local_museum.19",
        "id_local": "019",
        "name": "พิพิธภัณฑ์ท้องถิ่นเขตบางซื่อ",
        "dcode": "1029",
        "address": "โรงเรียนปริยัติธรรมวัดสร้อยทอง 1319 ถ.ประชาราษฎร์สาย 1 เขตบางซื่อ",
        "tel": "02-581-5801"
      },
      "geometry": {
        "type": "Point",
        "coordinates": [
          100.517425477478554,
          13.813243955380052
        ]
      }
    },
    {
      "type": "Feature",
      "properties": {
        "id": "Local_museum.20",
        "id_local": "010",
        "name": "พิพิธภัณฑ์ท้องถิ่นเขตพญาไท",
        "dcode": "1014",
        "address": "ภายในกรมประชาสัมพันธ์ ซ.อารีย์สัมพันธ์ ถ.พระราม 6 แขวงสามเสนใน เขตพญาไท",
        "tel": "02-298-8579"
      },
      "geometry": {
        "type": "Point",
        "coordinates": [
          100.537677305947895,
          13.780126684854375
        ]
      }
    },
    {
      "type": "Feature",
      "properties": {
        "id": "Local_museum.21",
        "id_local": "001",
        "name": "พิพิธภัณฑ์ท้องถิ่นเขตพระนคร",
        "dcode": "1001",
        "address": "ตั้งอยู่ 87 ซ.สามเสน 3 แขวงวัดสามพระยา อาคารเรือนปั้นหยา 2 ชั้น ด้านล่างสำนักงานเขตพระนคร เขตพระนคร",
        "tel": "02-282-8563"
      },
      "geometry": {
        "type": "Point",
        "coordinates": [
          100.498729139589088,
          13.764991941071859
        ]
      }
    },
    {
      "type": "Feature",
      "properties": {
        "id": "Local_museum.22",
        "id_local": "018",
        "name": "พิพิธภัณฑ์ท้องถิ่นเขตดินแดง",
        "dcode": "1026",
        "address": "3981 ถ.มิตรไมตรี2 เขตดินแดง กทม.",
        "tel": "02-282-1733"
      },
      "geometry": {
        "type": "Point",
        "coordinates": [
          100.554878318293035,
          13.767564118056953
        ]
      }
    },
    {
      "type": "Feature",
      "properties": {
        "id": "Local_museum.23",
        "id_local": "026",
        "name": "พิพิธภัณฑ์ท้องถิ่นเขตบางนา",
        "dcode": "1047",
        "address": "โรงเรียนบางนาใน 200 ถ.สรรพาวุธ ซ.วัดบางนาใน แขวงบางนา เขตบางนา กทม. 10260",
        "tel": "02-393-3758"
      },
      "geometry": {
        "type": "Point",
        "coordinates": [
          100.604164613874943,
          13.671371853475868
        ]
      }
    },
    {
      "type": "Feature",
      "properties": {
        "id": "Local_museum.24",
        "id_local": "006",
        "name": "พิพิธภัณฑ์ท้องถิ่นเขตพระโขนง",
        "dcode": "1009",
        "address": "วัดธรรมงคล ซ.ปุณณวิถี 20 ถ.สุขุมวิท101 แขวงบางจาก เขตพระโขนง กทม.",
        "tel": "02-332-8227"
      },
      "geometry": {
        "type": "Point",
        "coordinates": [
          100.61561595542635,
          13.688729390849469
        ]
      }
    },
    {
      "type": "Feature",
      "properties": {
        "id": "Local_museum.25",
        "id_local": "023",
        "name": "พิพิธภัณฑ์ท้องถิ่นเขตวัฒนา",
        "dcode": "1039",
        "address": "โรงเรียนวัดภาษี 33\/4 ซ.เอกมัย23 แขวงคลองตันเหนือ เขตวัฒนา กทม. 10110",
        "tel": "02-381-6694"
      },
      "geometry": {
        "type": "Point",
        "coordinates": [
          100.588559436193364,
          13.741696567428225
        ]
      }
    }
  ]
};
